{"sessionId":"tileset-camera-stutter","runId":"post-fix","hypothesisId":"D","location":"useCesium.js:initCesium:postRender","msg":"[DEBUG] scene runtime sample","data":{"fpsApprox":1.9,"slowFrameRatio":0.006,"cameraMoving":false,"camera":{"longitude":119.51012862628701,"latitude":28.460087385140334,"height":18580.300183282725,"heading":5.402493891649611,"pitch":-1.406067504264695,"roll":6.283105267660002},"cameraDelta":{"longitudeDelta":0,"latitudeDelta":0,"heightDelta":0,"headingDelta":0,"pitchDelta":4.440892098500626e-16,"rollDelta":8.881784197001252e-16},"primitivesLength":0,"dataSourceLength":0,"requestRenderMode":false},"ts":1779845712201}
{"sessionId":"tileset-camera-stutter","runId":"post-fix","hypothesisId":"D","location":"useCesium.js:initCesium:postRender","msg":"[DEBUG] scene runtime sample","data":{"fpsApprox":179.46,"slowFrameRatio":0,"cameraMoving":false,"camera":{"longitude":119.51012862628701,"latitude":28.460087385140334,"height":18580.300183282725,"heading":5.402493891649611,"pitch":-1.4060675042646955,"roll":6.283105267660001},"cameraDelta":{"longitudeDelta":0,"latitudeDelta":0,"heightDelta":0,"headingDelta":0,"pitchDelta":4.440892098500626e-16,"rollDelta":8.881784197001252e-16},"primitivesLength":0,"dataSourceLength":0,"requestRenderMode":false},"ts":1779845713204}
{"sessionId":"tileset-camera-stutter","runId":"post-fix","hypothesisId":"D","location":"useCesium.js:initCesium:postRender","msg":"[DEBUG] scene runtime sample","data":{"fpsApprox":180.01,"slowFrameRatio":0,"cameraMoving":false,"camera":{"longitude":119.51012862628701,"latitude":28.460087385140334,"height":18580.300183282725,"heading":5.402493891649611,"pitch":-1.4060675042646955,"roll":6.283105267660001},"cameraDelta":{"longitudeDelta":0,"latitudeDelta":0,"heightDelta":0,"headingDelta":0,"pitchDelta":0,"rollDelta":0},"primitivesLength":1,"dataSourceLength":0,"requestRenderMode":false},"ts":1779845714210}
{"sessionId":"tileset-camera-stutter","runId":"post-fix","hypothesisId":"D","location":"useCesium.js:initCesium:postRender","msg":"[DEBUG] scene runtime sample","data":{"fpsApprox":179.99,"slowFrameRatio":0,"cameraMoving":false,"camera":{"longitude":119.51012862628701,"latitude":28.460087385140334,"height":18580.300183282725,"heading":5.402493891649611,"pitch":-1.4060675042646955,"roll":6.283105267660001},"cameraDelta":{"longitudeDelta":0,"latitudeDelta":0,"heightDelta":0,"headingDelta":0,"pitchDelta":0,"rollDelta":0},"primitivesLength":1,"dataSourceLength":0,"requestRenderMode":false},"ts":1779845715216}
{"sessionId":"tileset-camera-stutter","runId":"post-fix","hypothesisId":"E","location":"useCesium.js:initCesium","msg":"[DEBUG] viewer initialized","data":{"requestRenderMode":false,"maximumRenderTimeChange":0,"useBrowserRecommendedResolution":true,"msaaSamples":4},"ts":1779845716065}
{"sessionId":"tileset-camera-stutter","runId":"post-fix","hypothesisId":"D","location":"useCesium.js:initCesium:postRender","msg":"[DEBUG] scene runtime sample","data":{"fpsApprox":58,"slowFrameRatio":0.034,"cameraMoving":false,"camera":{"longitude":-82.50000000000001,"latitude":35.15806111206043,"height":17594436.112523913,"heading":6.283185307179583,"pitch":-1.5688923835601551,"roll":0},"cameraDelta":null,"primitivesLength":0,"dataSourceLength":0,"requestRenderMode":false},"ts":1779845716532}
{"sessionId":"tileset-camera-stutter","runId":"post-fix","hypothesisId":"A","location":"useCesium.js:initCesium:postRender","msg":"[DEBUG] scene runtime sample","data":{"fpsApprox":167.88,"slowFrameRatio":0.012,"cameraMoving":true,"camera":{"longitude":169.4960785011175,"latitude":30.57902761994587,"height":5575779.882305285,"heading":6.283185307179586,"pitch":-1.570193695645255,"roll":0},"cameraDelta":{"longitudeDelta":251.9960785011175,"latitudeDelta":4.5790334921145615,"heightDelta":12018656.230218628,"headingDelta":3.552713678800501e-15,"pitchDelta":0.0013013120850997595,"rollDelta":0},"primitivesLength":0,"dataSourceLength":0,"requestRenderMode":false},"ts":1779845717533}
{"sessionId":"tileset-camera-stutter","runId":"post-fix","hypothesisId":"A","location":"useCesium.js:initCesium:postRender","msg":"[DEBUG] scene runtime sample","data":{"fpsApprox":180.03,"slowFrameRatio":0,"cameraMoving":true,"camera":{"longitude":126.04439847586592,"latitude":28.736810269288576,"height":740485.0374376044,"heading":6.283185307179586,"pitch":-1.5707172340084048,"roll":0},"cameraDelta":{"longitudeDelta":43.45168002525158,"latitudeDelta":1.8422173506572932,"heightDelta":4835294.84486768,"headingDelta":0,"pitchDelta":0.0005235383631498891,"rollDelta":0},"primitivesLength":0,"dataSourceLength":0,"requestRenderMode":false},"ts":1779845718538}
{"sessionId":"tileset-camera-stutter","runId":"post-fix","hypothesisId":"A","location":"useCesium.js:initCesium:postRender","msg":"[DEBUG] scene runtime sample","data":{"fpsApprox":178.84,"slowFrameRatio":0,"cameraMoving":true,"camera":{"longitude":119.48034716994,"latitude":28.458514718935753,"height":10038.633006137792,"heading":6.283185307179586,"pitch":-1.5707963267948966,"roll":0},"cameraDelta":{"longitudeDelta":6.564051305925915,"latitudeDelta":0.27829555035282283,"heightDelta":730446.4044314666,"headingDelta":0,"pitchDelta":0.00007909278649176343,"rollDelta":0},"primitivesLength":0,"dataSourceLength":0,"requestRenderMode":false},"ts":1779845719539}
{"sessionId":"tileset-camera-stutter","runId":"post-fix","hypothesisId":"A","location":"useCesium.js:initCesium:postRender","msg":"[DEBUG] scene runtime sample","data":{"fpsApprox":180.21,"slowFrameRatio":0,"cameraMoving":true,"camera":{"longitude":119.48,"latitude":28.458499999999994,"height":9999.99999999786,"heading":6.283185307179586,"pitch":-1.5707963267948966,"roll":0},"cameraDelta":{"longitudeDelta":0.0003471699399995032,"latitudeDelta":0.000014718935759105989,"heightDelta":38.63300613993124,"headingDelta":0,"pitchDelta":0,"rollDelta":0},"primitivesLength":0,"dataSourceLength":0,"requestRenderMode":false},"ts":1779845720543}
{"sessionId":"tileset-camera-stutter","runId":"post-fix","hypothesisId":"B","location":"useCesium.js:add3DTileset:start","msg":"[DEBUG] tileset load requested","data":{"url":"http://localhost:9004/tile/model/service/Yntvr2Mv/tileset.json","options":{"maximumScreenSpaceError":16,"cacheBytes":536870912,"maximumCacheOverflowBytes":134217728,"maximumMemoryUsage":512,"skipLevelOfDetail":true,"baseScreenSpaceError":1024,"skipScreenSpaceErrorFactor":16,"skipLevels":1,"immediatelyLoadDesiredLevelOfDetail":false,"loadSiblings":false,"cullWithChildrenBounds":true,"cullRequestsWhileMoving":true,"cullRequestsWhileMovingMultiplier":120,"preloadFlightDestinations":false,"preferLeaves":false,"dynamicScreenSpaceError":false,"dynamicScreenSpaceErrorDensity":0.0002,"dynamicScreenSpaceErrorFactor":24,"dynamicScreenSpaceErrorHeightFalloff":0.25,"progressiveResolutionHeightFraction":0,"foveatedScreenSpaceError":true,"foveatedConeSize":0.1,"preloadWhenHidden":false}},"ts":1779845721080}
{"sessionId":"tileset-camera-stutter","runId":"post-fix","hypothesisId":"C","location":"useCesium.js:add3DTileset:ready","msg":"[DEBUG] tileset added to scene","data":{"url":"http://localhost:9004/tile/model/service/Yntvr2Mv/tileset.json","backFaceCulling":true,"stats":{"show":true,"maximumScreenSpaceError":16,"memoryAdjustedScreenSpaceError":16,"totalMemoryUsageInBytes":0,"cacheBytes":536870912,"maximumCacheOverflowBytes":134217728,"numberOfLoadedTilesTotal":0,"numberOfTilesWithContentReady":0,"numberOfCommands":0,"selectedTiles":0}},"ts":1779845721086}
{"sessionId":"tileset-camera-stutter","runId":"post-fix","hypothesisId":"B","location":"useCesium.js:add3DTileset:moveStart","msg":"[DEBUG] camera move start, relax tileset detail","data":{"url":"http://localhost:9004/tile/model/service/Yntvr2Mv/tileset.json","maximumScreenSpaceError":28},"ts":1779845721094}
{"sessionId":"tileset-camera-stutter","runId":"post-fix","hypothesisId":"C","location":"useCesium.js:add3DTileset:loadProgress","msg":"[DEBUG] tileset load progress","data":{"url":"http://localhost:9004/tile/model/service/Yntvr2Mv/tileset.json","numberOfPendingRequests":1,"numberOfTilesProcessing":0,"stats":{"show":true,"maximumScreenSpaceError":28,"memoryAdjustedScreenSpaceError":28,"totalMemoryUsageInBytes":0,"cacheBytes":536870912,"maximumCacheOverflowBytes":134217728,"numberOfLoadedTilesTotal":0,"numberOfTilesWithContentReady":0,"numberOfCommands":0,"selectedTiles":0},"camera":{"longitude":119.40646290539411,"latitude":28.528936939286304,"height":671.991067881299,"heading":6.283185307179586,"pitch":-0.8000790182239896,"roll":6.283185307179586}},"ts":1779845721133}
{"sessionId":"tileset-camera-stutter","runId":"post-fix","hypothesisId":"C","location":"useCesium.js:add3DTileset:allTilesLoaded","msg":"[DEBUG] tileset all tiles loaded","data":{"url":"http://localhost:9004/tile/model/service/Yntvr2Mv/tileset.json","stats":{"show":true,"maximumScreenSpaceError":28,"memoryAdjustedScreenSpaceError":28,"totalMemoryUsageInBytes":81594884,"cacheBytes":536870912,"maximumCacheOverflowBytes":134217728,"numberOfLoadedTilesTotal":14,"numberOfTilesWithContentReady":14,"numberOfCommands":44,"selectedTiles":14},"camera":{"longitude":119.40646290539411,"latitude":28.528936939286304,"height":671.991067881299,"heading":6.283185307179586,"pitch":-0.8000790182239896,"roll":6.283185307179586}},"ts":1779845721413}
{"sessionId":"tileset-camera-stutter","runId":"post-fix","hypothesisId":"A","location":"useCesium.js:initCesium:postRender","msg":"[DEBUG] scene runtime sample","data":{"fpsApprox":127.49,"slowFrameRatio":0.055,"cameraMoving":true,"camera":{"longitude":119.40646290539411,"latitude":28.528936939286304,"height":671.991067881299,"heading":6.283185307179586,"pitch":-0.8000790182239896,"roll":6.283185307179586},"cameraDelta":{"longitudeDelta":0.07353709460589641,"latitudeDelta":0.07043693928631001,"heightDelta":9328.008932116561,"headingDelta":0,"pitchDelta":0.7707173085709069,"rollDelta":6.283185307179586},"primitivesLength":1,"dataSourceLength":0,"requestRenderMode":false},"ts":1779845721547}
{"sessionId":"tileset-camera-stutter","runId":"post-fix","hypothesisId":"B","location":"useCesium.js:add3DTileset:moveEnd","msg":"[DEBUG] camera move end, restore tileset detail","data":{"url":"http://localhost:9004/tile/model/service/Yntvr2Mv/tileset.json","maximumScreenSpaceError":16,"restoreDetailDelayMs":180},"ts":1779845721601}
{"sessionId":"tileset-camera-stutter","runId":"post-fix","hypothesisId":"B","location":"useCesium.js:add3DTileset:moveStart","msg":"[DEBUG] camera move start, relax tileset detail","data":{"url":"http://localhost:9004/tile/model/service/Yntvr2Mv/tileset.json","maximumScreenSpaceError":28},"ts":1779845721986}
{"sessionId":"tileset-camera-stutter","runId":"post-fix","hypothesisId":"A","location":"useCesium.js:initCesium:postRender","msg":"[DEBUG] scene runtime sample","data":{"fpsApprox":80.68,"slowFrameRatio":0.037,"cameraMoving":true,"camera":{"longitude":119.40618897072096,"latitude":28.53209627227531,"height":268.5332733370176,"heading":6.283185307179577,"pitch":-0.8000790182239923,"roll":6.283185307179577},"cameraDelta":{"longitudeDelta":0.0002739346731459591,"latitudeDelta":0.0031593329890071686,"heightDelta":403.45779454428146,"headingDelta":8.881784197001252e-15,"pitchDelta":2.6645352591003757e-15,"rollDelta":8.881784197001252e-15},"primitivesLength":1,"dataSourceLength":0,"requestRenderMode":false},"ts":1779845722551}
{"sessionId":"tileset-camera-stutter","runId":"post-fix","hypothesisId":"C","location":"useCesium.js:add3DTileset:loadProgress","msg":"[DEBUG] tileset load progress","data":{"url":"http://localhost:9004/tile/model/service/Yntvr2Mv/tileset.json","numberOfPendingRequests":2,"numberOfTilesProcessing":0,"stats":{"show":true,"maximumScreenSpaceError":28,"memoryAdjustedScreenSpaceError":28,"totalMemoryUsageInBytes":81594884,"cacheBytes":536870912,"maximumCacheOverflowBytes":134217728,"numberOfLoadedTilesTotal":14,"numberOfTilesWithContentReady":14,"numberOfCommands":40,"selectedTiles":13},"camera":{"longitude":119.40615598156573,"latitude":28.532326227845008,"height":241.07665795053057,"heading":6.283185307179577,"pitch":-0.8000790182239914,"roll":6.283185307179572}},"ts":1779845722829}
{"sessionId":"tileset-camera-stutter","runId":"post-fix","hypothesisId":"C","location":"useCesium.js:add3DTileset:allTilesLoaded","msg":"[DEBUG] tileset all tiles loaded","data":{"url":"http://localhost:9004/tile/model/service/Yntvr2Mv/tileset.json","stats":{"show":true,"maximumScreenSpaceError":28,"memoryAdjustedScreenSpaceError":28,"totalMemoryUsageInBytes":184497362,"cacheBytes":536870912,"maximumCacheOverflowBytes":134217728,"numberOfLoadedTilesTotal":20,"numberOfTilesWithContentReady":20,"numberOfCommands":77,"selectedTiles":18},"camera":{"longitude":119.4058466075114,"latitude":28.532411822880572,"height":197.52799184384463,"heading":0.30831878932996837,"pitch":-0.5471313537201645,"roll":6.283183802320711}},"ts":1779845723139}
{"sessionId":"tileset-camera-stutter","runId":"post-fix","hypothesisId":"A","location":"useCesium.js:initCesium:postRender","msg":"[DEBUG] scene runtime sample","data":{"fpsApprox":54.18,"slowFrameRatio":0.291,"cameraMoving":true,"camera":{"longitude":119.40583841783398,"latitude":28.53261660903701,"height":183.3933456384172,"heading":0.40271500207845357,"pitch":-0.5128332875788191,"roll":6.283183827307374},"cameraDelta":{"longitudeDelta":0.00035055288698515596,"latitudeDelta":0.0005203367616992693,"heightDelta":85.13992769860039,"headingDelta":5.880470305101124,"pitchDelta":0.2872457306451732,"rollDelta":0.0000014798722034470302},"primitivesLength":1,"dataSourceLength":0,"requestRenderMode":false},"ts":1779845723566}
{"sessionId":"tileset-camera-stutter","runId":"post-fix","hypothesisId":"C","location":"useCesium.js:add3DTileset:loadProgress","msg":"[DEBUG] tileset load progress","data":{"url":"http://localhost:9004/tile/model/service/Yntvr2Mv/tileset.json","numberOfPendingRequests":1,"numberOfTilesProcessing":12,"stats":{"show":true,"maximumScreenSpaceError":28,"memoryAdjustedScreenSpaceError":28,"totalMemoryUsageInBytes":328881810,"cacheBytes":536870912,"maximumCacheOverflowBytes":134217728,"numberOfLoadedTilesTotal":35,"numberOfTilesWithContentReady":35,"numberOfCommands":116,"selectedTiles":28},"camera":{"longitude":119.40585413423905,"latitude":28.53265506945653,"height":181.37179373637903,"heading":0.40271500207845357,"pitch":-0.5128332875788195,"roll":6.283183827307374}},"ts":1779845723718}
{"sessionId":"tileset-camera-stutter","runId":"post-fix","hypothesisId":"C","location":"useCesium.js:add3DTileset:allTilesLoaded","msg":"[DEBUG] tileset all tiles loaded","data":{"url":"http://localhost:9004/tile/model/service/Yntvr2Mv/tileset.json","stats":{"show":true,"maximumScreenSpaceError":28,"memoryAdjustedScreenSpaceError":28,"totalMemoryUsageInBytes":536548848,"cacheBytes":536870912,"maximumCacheOverflowBytes":134217728,"numberOfLoadedTilesTotal":48,"numberOfTilesWithContentReady":46,"numberOfCommands":174,"selectedTiles":35},"camera":{"longitude":119.40583248153334,"latitude":28.532823175795354,"height":179.0122192426138,"heading":0.4027150002277473,"pitch":-0.5128332798634401,"roll":6.283183831079336}},"ts":1779845723961}
{"sessionId":"tileset-camera-stutter","runId":"post-fix","hypothesisId":"C","location":"useCesium.js:add3DTileset:allTilesLoaded","msg":"[DEBUG] tileset all tiles loaded","data":{"url":"http://localhost:9004/tile/model/service/Yntvr2Mv/tileset.json","stats":{"show":true,"maximumScreenSpaceError":28,"memoryAdjustedScreenSpaceError":28,"totalMemoryUsageInBytes":560613584,"cacheBytes":536870912,"maximumCacheOverflowBytes":134217728,"numberOfLoadedTilesTotal":54,"numberOfTilesWithContentReady":48,"numberOfCommands":178,"selectedTiles":36},"camera":{"longitude":119.40588874755694,"latitude":28.532867153425823,"height":178.14232385657795,"heading":0.402714999754302,"pitch":-0.5128332778897104,"roll":6.283183832044271}},"ts":1779845724174}
{"sessionId":"tileset-camera-stutter","runId":"post-fix","hypothesisId":"C","location":"useCesium.js:add3DTileset:loadProgress","msg":"[DEBUG] tileset load progress","data":{"url":"http://localhost:9004/tile/model/service/Yntvr2Mv/tileset.json","numberOfPendingRequests":12,"numberOfTilesProcessing":13,"stats":{"show":true,"maximumScreenSpaceError":28,"memoryAdjustedScreenSpaceError":28,"totalMemoryUsageInBytes":608330270,"cacheBytes":536870912,"maximumCacheOverflowBytes":134217728,"numberOfLoadedTilesTotal":56,"numberOfTilesWithContentReady":50,"numberOfCommands":195,"selectedTiles":38},"camera":{"longitude":119.40588540520555,"latitude":28.53286081236669,"height":178.1403465682152,"heading":0.40271499984371495,"pitch":-0.5128332782624643,"roll":6.283183831862035}},"ts":1779845724546}
{"sessionId":"tileset-camera-stutter","runId":"post-fix","hypothesisId":"A","location":"useCesium.js:initCesium:postRender","msg":"[DEBUG] scene runtime sample","data":{"fpsApprox":45.29,"slowFrameRatio":0.261,"cameraMoving":true,"camera":{"longitude":119.40588462043407,"latitude":28.532859197278285,"height":177.78466986013282,"heading":0.40272735260116477,"pitch":-0.5042587298900871,"roll":6.283184916088084},"cameraDelta":{"longitudeDelta":0.00004620260008891819,"latitudeDelta":0.0002425882412744329,"heightDelta":5.608675778284379,"headingDelta":0.000012350522711201961,"pitchDelta":0.008574557688731943,"rollDelta":0.000001088780710034598},"primitivesLength":1,"dataSourceLength":0,"requestRenderMode":false},"ts":1779845724582}
{"sessionId":"tileset-camera-stutter","runId":"post-fix","hypothesisId":"C","location":"useCesium.js:add3DTileset:allTilesLoaded","msg":"[DEBUG] tileset all tiles loaded","data":{"url":"http://localhost:9004/tile/model/service/Yntvr2Mv/tileset.json","stats":{"show":true,"maximumScreenSpaceError":28,"memoryAdjustedScreenSpaceError":30.308100480000004,"totalMemoryUsageInBytes":596774280,"cacheBytes":536870912,"maximumCacheOverflowBytes":134217728,"numberOfLoadedTilesTotal":78,"numberOfTilesWithContentReady":33,"numberOfCommands":189,"selectedTiles":26},"camera":{"longitude":119.40579192688206,"latitude":28.533035521452664,"height":184.25512919107814,"heading":0.9421275007649594,"pitch":-0.7657801913518836,"roll":6.283184860331009}},"ts":1779845725046}
{"sessionId":"tileset-camera-stutter","runId":"post-fix","hypothesisId":"C","location":"useCesium.js:add3DTileset:loadProgress","msg":"[DEBUG] tileset load progress","data":{"url":"http://localhost:9004/tile/model/service/Yntvr2Mv/tileset.json","numberOfPendingRequests":1,"numberOfTilesProcessing":1,"stats":{"show":true,"maximumScreenSpaceError":28,"memoryAdjustedScreenSpaceError":28,"totalMemoryUsageInBytes":549401754,"cacheBytes":536870912,"maximumCacheOverflowBytes":134217728,"numberOfLoadedTilesTotal":81,"numberOfTilesWithContentReady":30,"numberOfCommands":173,"selectedTiles":24},"camera":{"longitude":119.40593658193188,"latitude":28.532858436843913,"height":165.29788065578796,"heading":0.2818988025922149,"pitch":-0.251306799901043,"roll":6.283184973718574}},"ts":1779845725348}
{"sessionId":"tileset-camera-stutter","runId":"post-fix","hypothesisId":"C","location":"useCesium.js:add3DTileset:allTilesLoaded","msg":"[DEBUG] tileset all tiles loaded","data":{"url":"http://localhost:9004/tile/model/service/Yntvr2Mv/tileset.json","stats":{"show":true,"maximumScreenSpaceError":28,"memoryAdjustedScreenSpaceError":28,"totalMemoryUsageInBytes":519398192,"cacheBytes":536870912,"maximumCacheOverflowBytes":134217728,"numberOfLoadedTilesTotal":83,"numberOfTilesWithContentReady":29,"numberOfCommands":169,"selectedTiles":24},"camera":{"longitude":119.40575519815724,"latitude":28.53293914262098,"height":164.08099177672273,"heading":0.7788501090214357,"pitch":-0.22129578198749322,"roll":6.283184969036193}},"ts":1779845725481}
{"sessionId":"tileset-camera-stutter","runId":"post-fix","hypothesisId":"A","location":"useCesium.js:initCesium:postRender","msg":"[DEBUG] scene runtime sample","data":{"fpsApprox":41.84,"slowFrameRatio":0.333,"cameraMoving":true,"camera":{"longitude":119.4057071644975,"latitude":28.533013803696765,"height":170.56577180975265,"heading":1.0174860158526249,"pitch":-0.3842121615902738,"roll":6.2831849568415645},"cameraDelta":{"longitudeDelta":0.0001774559365657069,"latitudeDelta":0.0001546064184800855,"heightDelta":7.218898050380176,"headingDelta":0.6147586632514601,"pitchDelta":0.1200465682998133,"rollDelta":4.0753480590183244e-8},"primitivesLength":1,"dataSourceLength":0,"requestRenderMode":false},"ts":1779845725586}
{"sessionId":"tileset-camera-stutter","runId":"post-fix","hypothesisId":"C","location":"useCesium.js:add3DTileset:allTilesLoaded","msg":"[DEBUG] tileset all tiles loaded","data":{"url":"http://localhost:9004/tile/model/service/Yntvr2Mv/tileset.json","stats":{"show":true,"maximumScreenSpaceError":28,"memoryAdjustedScreenSpaceError":28,"totalMemoryUsageInBytes":526992720,"cacheBytes":536870912,"maximumCacheOverflowBytes":134217728,"numberOfLoadedTilesTotal":94,"numberOfTilesWithContentReady":29,"numberOfCommands":166,"selectedTiles":23},"camera":{"longitude":119.40581453159088,"latitude":28.53300423609366,"height":182.56411427011412,"heading":0.8087701525406672,"pitch":-0.7229058095403524,"roll":6.283184880218483}},"ts":1779845725772}
{"sessionId":"tileset-camera-stutter","runId":"post-fix","hypothesisId":"C","location":"useCesium.js:add3DTileset:allTilesLoaded","msg":"[DEBUG] tileset all tiles loaded","data":{"url":"http://localhost:9004/tile/model/service/Yntvr2Mv/tileset.json","stats":{"show":true,"maximumScreenSpaceError":28,"memoryAdjustedScreenSpaceError":28,"totalMemoryUsageInBytes":661437316,"cacheBytes":536870912,"maximumCacheOverflowBytes":134217728,"numberOfLoadedTilesTotal":102,"numberOfTilesWithContentReady":36,"numberOfCommands":213,"selectedTiles":28},"camera":{"longitude":119.4058724731205,"latitude":28.532952744965964,"height":180.91128197725368,"heading":0.5572853375334343,"pitch":-0.6714586010929358,"roll":6.283184896246332}},"ts":1779845726121}
{"sessionId":"tileset-camera-stutter","runId":"post-fix","hypothesisId":"C","location":"useCesium.js:add3DTileset:loadProgress","msg":"[DEBUG] tileset load progress","data":{"url":"http://localhost:9004/tile/model/service/Yntvr2Mv/tileset.json","numberOfPendingRequests":17,"numberOfTilesProcessing":0,"stats":{"show":true,"maximumScreenSpaceError":28,"memoryAdjustedScreenSpaceError":28,"totalMemoryUsageInBytes":661437316,"cacheBytes":536870912,"maximumCacheOverflowBytes":134217728,"numberOfLoadedTilesTotal":102,"numberOfTilesWithContentReady":36,"numberOfCommands":213,"selectedTiles":28},"camera":{"longitude":119.4058724731205,"latitude":28.532952744965964,"height":180.91128197725368,"heading":0.5572853375334343,"pitch":-0.6714586010929358,"roll":6.283184896246332}},"ts":1779845726160}
{"sessionId":"tileset-camera-stutter","runId":"post-fix","hypothesisId":"C","location":"useCesium.js:add3DTileset:allTilesLoaded","msg":"[DEBUG] tileset all tiles loaded","data":{"url":"http://localhost:9004/tile/model/service/Yntvr2Mv/tileset.json","stats":{"show":true,"maximumScreenSpaceError":28,"memoryAdjustedScreenSpaceError":28,"totalMemoryUsageInBytes":590886250,"cacheBytes":536870912,"maximumCacheOverflowBytes":134217728,"numberOfLoadedTilesTotal":110,"numberOfTilesWithContentReady":34,"numberOfCommands":201,"selectedTiles":29},"camera":{"longitude":119.40576892355111,"latitude":28.532792182603433,"height":197.57894561998708,"heading":0.5572853375334343,"pitch":-0.6714586010929358,"roll":6.283184896246331}},"ts":1779845726498}
{"sessionId":"tileset-camera-stutter","runId":"post-fix","hypothesisId":"A","location":"useCesium.js:initCesium:postRender","msg":"[DEBUG] scene runtime sample","data":{"fpsApprox":69.76,"slowFrameRatio":0.143,"cameraMoving":true,"camera":{"longitude":119.40575021208592,"latitude":28.53276316883489,"height":200.59080015256419,"heading":0.5572853375334343,"pitch":-0.6714586010929384,"roll":6.28318489624633},"cameraDelta":{"longitudeDelta":0.000043047588420108696,"latitudeDelta":0.000250634861874488,"heightDelta":30.025028342811538,"headingDelta":0.46020067831919054,"pitchDelta":0.2872464395026646,"rollDelta":6.059523460777427e-8},"primitivesLength":1,"dataSourceLength":0,"requestRenderMode":false},"ts":1779845726589}
{"sessionId":"tileset-camera-stutter","runId":"post-fix","hypothesisId":"C","location":"useCesium.js:add3DTileset:allTilesLoaded","msg":"[DEBUG] tileset all tiles loaded","data":{"url":"http://localhost:9004/tile/model/service/Yntvr2Mv/tileset.json","stats":{"show":true,"maximumScreenSpaceError":28,"memoryAdjustedScreenSpaceError":28,"totalMemoryUsageInBytes":509602360,"cacheBytes":536870912,"maximumCacheOverflowBytes":134217728,"numberOfLoadedTilesTotal":111,"numberOfTilesWithContentReady":33,"numberOfCommands":185,"selectedTiles":29},"camera":{"longitude":119.40564321397011,"latitude":28.53277590485721,"height":202.88649598225263,"heading":0.5572853366149673,"pitch":-0.6714585992381776,"roll":6.283184897722654}},"ts":1779845726700}
{"sessionId":"tileset-camera-stutter","runId":"post-fix","hypothesisId":"C","location":"useCesium.js:add3DTileset:loadProgress","msg":"[DEBUG] tileset load progress","data":{"url":"http://localhost:9004/tile/model/service/Yntvr2Mv/tileset.json","numberOfPendingRequests":0,"numberOfTilesProcessing":0,"stats":{"show":true,"maximumScreenSpaceError":28,"memoryAdjustedScreenSpaceError":28,"totalMemoryUsageInBytes":521294990,"cacheBytes":536870912,"maximumCacheOverflowBytes":134217728,"numberOfLoadedTilesTotal":118,"numberOfTilesWithContentReady":37,"numberOfCommands":170,"selectedTiles":29},"camera":{"longitude":119.40556392509174,"latitude":28.532821587056038,"height":204.05175256141519,"heading":0.557285335131187,"pitch":-0.6714585962418118,"roll":6.283184900107661}},"ts":1779845726970}
{"sessionId":"tileset-camera-stutter","runId":"post-fix","hypothesisId":"C","location":"useCesium.js:add3DTileset:allTilesLoaded","msg":"[DEBUG] tileset all tiles loaded","data":{"url":"http://localhost:9004/tile/model/service/Yntvr2Mv/tileset.json","stats":{"show":true,"maximumScreenSpaceError":28,"memoryAdjustedScreenSpaceError":28,"totalMemoryUsageInBytes":521294990,"cacheBytes":536870912,"maximumCacheOverflowBytes":134217728,"numberOfLoadedTilesTotal":118,"numberOfTilesWithContentReady":37,"numberOfCommands":170,"selectedTiles":29},"camera":{"longitude":119.40556392509174,"latitude":28.532821587056038,"height":204.05175256141519,"heading":0.557285335131187,"pitch":-0.6714585962418118,"roll":6.283184900107661}},"ts":1779845726970}
{"sessionId":"tileset-camera-stutter","runId":"post-fix","hypothesisId":"A","location":"useCesium.js:initCesium:postRender","msg":"[DEBUG] scene runtime sample","data":{"fpsApprox":81.68,"slowFrameRatio":0.048,"cameraMoving":true,"camera":{"longitude":119.40573263213399,"latitude":28.533140501582473,"height":167.58338233065945,"heading":0.6834952692429574,"pitch":-0.4871057546728008,"roll":6.283185178640954},"cameraDelta":{"longitudeDelta":0.00001757995192974704,"latitudeDelta":0.00037733274758267044,"heightDelta":33.00741782190474,"headingDelta":0.1262099317095231,"pitchDelta":0.1843528464201376,"rollDelta":2.823946241292674e-7},"primitivesLength":1,"dataSourceLength":0,"requestRenderMode":false},"ts":1779845727605}
{"sessionId":"tileset-camera-stutter","runId":"post-fix","hypothesisId":"C","location":"useCesium.js:add3DTileset:allTilesLoaded","msg":"[DEBUG] tileset all tiles loaded","data":{"url":"http://localhost:9004/tile/model/service/Yntvr2Mv/tileset.json","stats":{"show":true,"maximumScreenSpaceError":28,"memoryAdjustedScreenSpaceError":28,"totalMemoryUsageInBytes":532239654,"cacheBytes":536870912,"maximumCacheOverflowBytes":134217728,"numberOfLoadedTilesTotal":119,"numberOfTilesWithContentReady":38,"numberOfCommands":122,"selectedTiles":23},"camera":{"longitude":119.40568120429593,"latitude":28.53316625840743,"height":163.32437005241474,"heading":0.8914207484373904,"pitch":-0.33276379499535125,"roll":6.28318518561643}},"ts":1779845727660}
{"sessionId":"tileset-camera-stutter","runId":"post-fix","hypothesisId":"C","location":"useCesium.js:add3DTileset:loadProgress","msg":"[DEBUG] tileset load progress","data":{"url":"http://localhost:9004/tile/model/service/Yntvr2Mv/tileset.json","numberOfPendingRequests":0,"numberOfTilesProcessing":3,"stats":{"show":true,"maximumScreenSpaceError":28,"memoryAdjustedScreenSpaceError":28,"totalMemoryUsageInBytes":532366856,"cacheBytes":536870912,"maximumCacheOverflowBytes":134217728,"numberOfLoadedTilesTotal":122,"numberOfTilesWithContentReady":39,"numberOfCommands":125,"selectedTiles":22},"camera":{"longitude":119.40561665317502,"latitude":28.533387752217948,"height":160.03290583514527,"heading":1.8352230429664251,"pitch":-0.21700726725286845,"roll":6.283185205796944}},"ts":1779845727832}
{"sessionId":"tileset-camera-stutter","runId":"post-fix","hypothesisId":"C","location":"useCesium.js:add3DTileset:allTilesLoaded","msg":"[DEBUG] tileset all tiles loaded","data":{"url":"http://localhost:9004/tile/model/service/Yntvr2Mv/tileset.json","stats":{"show":true,"maximumScreenSpaceError":28,"memoryAdjustedScreenSpaceError":28,"totalMemoryUsageInBytes":528888494,"cacheBytes":536870912,"maximumCacheOverflowBytes":134217728,"numberOfLoadedTilesTotal":125,"numberOfTilesWithContentReady":38,"numberOfCommands":131,"selectedTiles":24},"camera":{"longitude":119.40563013799918,"latitude":28.533417210771574,"height":161.34971096751184,"heading":1.9608940884136672,"pitch":-0.26416726521177525,"roll":6.283185207401795}},"ts":1779845727846}
{"sessionId":"tileset-camera-stutter","runId":"post-fix","hypothesisId":"C","location":"useCesium.js:add3DTileset:allTilesLoaded","msg":"[DEBUG] tileset all tiles loaded","data":{"url":"http://localhost:9004/tile/model/service/Yntvr2Mv/tileset.json","stats":{"show":true,"maximumScreenSpaceError":28,"memoryAdjustedScreenSpaceError":28,"totalMemoryUsageInBytes":532688584,"cacheBytes":536870912,"maximumCacheOverflowBytes":134217728,"numberOfLoadedTilesTotal":126,"numberOfTilesWithContentReady":36,"numberOfCommands":118,"selectedTiles":19},"camera":{"longitude":119.40567510061807,"latitude":28.533416682186157,"height":170.6037234440376,"heading":2.028992140447861,"pitch":-0.6200105907345685,"roll":6.283185193001868}},"ts":1779845727963}
{"sessionId":"tileset-camera-stutter","runId":"post-fix","hypothesisId":"A","location":"useCesium.js:initCesium:postRender","msg":"[DEBUG] scene runtime sample","data":{"fpsApprox":66.26,"slowFrameRatio":0.164,"cameraMoving":true,"camera":{"longitude":119.40577154161014,"latitude":28.533103366793924,"height":166.51739219092607,"heading":0.48178265899840156,"pitch":-0.4356573295929298,"roll":6.283185182413774},"cameraDelta":{"longitudeDelta":0.000038909476145931876,"latitudeDelta":0.00003713478854905361,"heightDelta":1.0659901397333726,"headingDelta":0.2017126102445559,"pitchDelta":0.05144842507987102,"rollDelta":3.7728202784137466e-9},"primitivesLength":1,"dataSourceLength":0,"requestRenderMode":false},"ts":1779845728616}
{"sessionId":"tileset-camera-stutter","runId":"post-fix","hypothesisId":"C","location":"useCesium.js:add3DTileset:loadProgress","msg":"[DEBUG] tileset load progress","data":{"url":"http://localhost:9004/tile/model/service/Yntvr2Mv/tileset.json","numberOfPendingRequests":5,"numberOfTilesProcessing":29,"stats":{"show":true,"maximumScreenSpaceError":28,"memoryAdjustedScreenSpaceError":28,"totalMemoryUsageInBytes":520750492,"cacheBytes":536870912,"maximumCacheOverflowBytes":134217728,"numberOfLoadedTilesTotal":139,"numberOfTilesWithContentReady":41,"numberOfCommands":171,"selectedTiles":28},"camera":{"longitude":119.4057648583385,"latitude":28.533092252615162,"height":167.11255149457446,"heading":0.48178265899840156,"pitch":-0.4356573295929289,"roll":6.283185182413773}},"ts":1779845728753}
{"sessionId":"tileset-camera-stutter","runId":"post-fix","hypothesisId":"C","location":"useCesium.js:add3DTileset:allTilesLoaded","msg":"[DEBUG] tileset all tiles loaded","data":{"url":"http://localhost:9004/tile/model/service/Yntvr2Mv/tileset.json","stats":{"show":true,"maximumScreenSpaceError":28,"memoryAdjustedScreenSpaceError":41.60652708739395,"totalMemoryUsageInBytes":649687708,"cacheBytes":536870912,"maximumCacheOverflowBytes":134217728,"numberOfLoadedTilesTotal":182,"numberOfTilesWithContentReady":47,"numberOfCommands":154,"selectedTiles":31},"camera":{"longitude":119.40582239673844,"latitude":28.533014964663955,"height":170.25244388349478,"heading":0.4817826593245984,"pitch":-0.4356573309331453,"roll":6.2831851816408}},"ts":1779845729535}
{"sessionId":"tileset-camera-stutter","runId":"post-fix","hypothesisId":"A","location":"useCesium.js:initCesium:postRender","msg":"[DEBUG] scene runtime sample","data":{"fpsApprox":39.75,"slowFrameRatio":0.275,"cameraMoving":true,"camera":{"longitude":119.40583389329332,"latitude":28.533011662150994,"height":170.251414074889,"heading":0.48178265937011133,"pitch":-0.4356573311201406,"roll":6.283185181532949},"cameraDelta":{"longitudeDelta":0.00006235168318369233,"latitudeDelta":0.0000917046429300683,"heightDelta":3.7340218839629244,"headingDelta":3.7170977407186e-10,"pitchDelta":1.5272108022656994e-9,"rollDelta":8.808251905634279e-10},"primitivesLength":1,"dataSourceLength":0,"requestRenderMode":false},"ts":1779845729623}
{"sessionId":"tileset-camera-stutter","runId":"post-fix","hypothesisId":"C","location":"useCesium.js:add3DTileset:loadProgress","msg":"[DEBUG] tileset load progress","data":{"url":"http://localhost:9004/tile/model/service/Yntvr2Mv/tileset.json","numberOfPendingRequests":1,"numberOfTilesProcessing":0,"stats":{"show":true,"maximumScreenSpaceError":28,"memoryAdjustedScreenSpaceError":28,"totalMemoryUsageInBytes":489763376,"cacheBytes":536870912,"maximumCacheOverflowBytes":134217728,"numberOfLoadedTilesTotal":182,"numberOfTilesWithContentReady":39,"numberOfCommands":156,"selectedTiles":28},"camera":{"longitude":119.40563450228571,"latitude":28.53269871836244,"height":188.13731927841386,"heading":0.48178265941400333,"pitch":-0.4356573313004741,"roll":6.283185181428932}},"ts":1779845730262}
{"sessionId":"tileset-camera-stutter","runId":"post-fix","hypothesisId":"C","location":"useCesium.js:add3DTileset:allTilesLoaded","msg":"[DEBUG] tileset all tiles loaded","data":{"url":"http://localhost:9004/tile/model/service/Yntvr2Mv/tileset.json","stats":{"show":true,"maximumScreenSpaceError":28,"memoryAdjustedScreenSpaceError":28,"totalMemoryUsageInBytes":492571160,"cacheBytes":536870912,"maximumCacheOverflowBytes":134217728,"numberOfLoadedTilesTotal":183,"numberOfTilesWithContentReady":40,"numberOfCommands":166,"selectedTiles":29},"camera":{"longitude":119.40572827586381,"latitude":28.532844830820334,"height":179.75467061724598,"heading":0.48178265941400156,"pitch":-0.43565733130047457,"roll":6.28318518142893}},"ts":1779845730359}
{"sessionId":"tileset-camera-stutter","runId":"post-fix","hypothesisId":"A","location":"useCesium.js:initCesium:postRender","msg":"[DEBUG] scene runtime sample","data":{"fpsApprox":72.91,"slowFrameRatio":0.027,"cameraMoving":true,"camera":{"longitude":119.40580756697169,"latitude":28.53296702596869,"height":172.7720555853529,"heading":0.48178265941400156,"pitch":-0.4356573313004741,"roll":6.283185181428929},"cameraDelta":{"longitudeDelta":0.000026326321631131577,"latitudeDelta":0.00004463618230232669,"heightDelta":2.5206415104638893,"headingDelta":4.389022478790139e-11,"pitchDelta":1.8033352588986418e-10,"rollDelta":1.0401990380159987e-10},"primitivesLength":1,"dataSourceLength":0,"requestRenderMode":false},"ts":1779845730624}
{"sessionId":"tileset-camera-stutter","runId":"post-fix","hypothesisId":"C","location":"useCesium.js:add3DTileset:loadProgress","msg":"[DEBUG] tileset load progress","data":{"url":"http://localhost:9004/tile/model/service/Yntvr2Mv/tileset.json","numberOfPendingRequests":1,"numberOfTilesProcessing":7,"stats":{"show":true,"maximumScreenSpaceError":28,"memoryAdjustedScreenSpaceError":28,"totalMemoryUsageInBytes":550921846,"cacheBytes":536870912,"maximumCacheOverflowBytes":134217728,"numberOfLoadedTilesTotal":199,"numberOfTilesWithContentReady":41,"numberOfCommands":179,"selectedTiles":28},"camera":{"longitude":119.40606305117801,"latitude":28.532929494694603,"height":170.55339740858628,"heading":6.009993952000308,"pitch":-0.3970717652542768,"roll":7.013679832468256e-7}},"ts":1779845731150}
{"sessionId":"tileset-camera-stutter","runId":"post-fix","hypothesisId":"C","location":"useCesium.js:add3DTileset:allTilesLoaded","msg":"[DEBUG] tileset all tiles loaded","data":{"url":"http://localhost:9004/tile/model/service/Yntvr2Mv/tileset.json","stats":{"show":true,"maximumScreenSpaceError":28,"memoryAdjustedScreenSpaceError":29.713824000000002,"totalMemoryUsageInBytes":640150152,"cacheBytes":536870912,"maximumCacheOverflowBytes":134217728,"numberOfLoadedTilesTotal":210,"numberOfTilesWithContentReady":43,"numberOfCommands":175,"selectedTiles":30},"camera":{"longitude":119.40581402756501,"latitude":28.532973495645376,"height":168.3900857984113,"heading":0.4814360627673704,"pitch":-0.33276247634176626,"roll":6.693052752027029e-7}},"ts":1779845731373}
{"sessionId":"tileset-camera-stutter","runId":"post-fix","hypothesisId":"C","location":"useCesium.js:add3DTileset:allTilesLoaded","msg":"[DEBUG] tileset all tiles loaded","data":{"url":"http://localhost:9004/tile/model/service/Yntvr2Mv/tileset.json","stats":{"show":true,"maximumScreenSpaceError":28,"memoryAdjustedScreenSpaceError":29.713824000000002,"totalMemoryUsageInBytes":648837336,"cacheBytes":536870912,"maximumCacheOverflowBytes":134217728,"numberOfLoadedTilesTotal":211,"numberOfTilesWithContentReady":44,"numberOfCommands":165,"selectedTiles":29},"camera":{"longitude":119.40579944968047,"latitude":28.53300011252489,"height":172.37717410097324,"heading":0.5630119106032794,"pitch":-0.45280629949414486,"roll":7.045361156698959e-7}},"ts":1779845731476}
{"sessionId":"tileset-camera-stutter","runId":"post-fix","hypothesisId":"A","location":"useCesium.js:initCesium:postRender","msg":"[DEBUG] scene runtime sample","data":{"fpsApprox":49.73,"slowFrameRatio":0.32,"cameraMoving":true,"camera":{"longitude":119.40588076117182,"latitude":28.533017717147864,"height":181.76301638925744,"heading":0.3484847586966211,"pitch":-0.770064556663395,"roll":8.891310674385977e-7},"cameraDelta":{"longitudeDelta":0.00007319420012663613,"latitudeDelta":0.000050691179172446255,"heightDelta":8.990960803904557,"headingDelta":0.13329790071738046,"pitchDelta":0.3344072253629209,"rollDelta":6.283184292297862},"primitivesLength":1,"dataSourceLength":0,"requestRenderMode":false},"ts":1779845731629}
{"sessionId":"tileset-camera-stutter","runId":"post-fix","hypothesisId":"C","location":"useCesium.js:add3DTileset:loadProgress","msg":"[DEBUG] tileset load progress","data":{"url":"http://localhost:9004/tile/model/service/Yntvr2Mv/tileset.json","numberOfPendingRequests":0,"numberOfTilesProcessing":0,"stats":{"show":true,"maximumScreenSpaceError":28,"memoryAdjustedScreenSpaceError":29.713824000000002,"totalMemoryUsageInBytes":569209454,"cacheBytes":536870912,"maximumCacheOverflowBytes":134217728,"numberOfLoadedTilesTotal":216,"numberOfTilesWithContentReady":33,"numberOfCommands":163,"selectedTiles":22},"camera":{"longitude":119.4056973766098,"latitude":28.533068172048672,"height":162.43741646166927,"heading":0.9329244515193205,"pitch":-0.16127051441371965,"roll":6.395355116595169e-7}},"ts":1779845732082}
{"sessionId":"tileset-camera-stutter","runId":"post-fix","hypothesisId":"C","location":"useCesium.js:add3DTileset:allTilesLoaded","msg":"[DEBUG] tileset all tiles loaded","data":{"url":"http://localhost:9004/tile/model/service/Yntvr2Mv/tileset.json","stats":{"show":true,"maximumScreenSpaceError":28,"memoryAdjustedScreenSpaceError":29.713824000000002,"totalMemoryUsageInBytes":569209454,"cacheBytes":536870912,"maximumCacheOverflowBytes":134217728,"numberOfLoadedTilesTotal":216,"numberOfTilesWithContentReady":33,"numberOfCommands":163,"selectedTiles":22},"camera":{"longitude":119.4056973766098,"latitude":28.533068172048672,"height":162.43741646166927,"heading":0.9329244515193205,"pitch":-0.16127051441371965,"roll":6.395355125476954e-7}},"ts":1779845732083}
{"sessionId":"tileset-camera-stutter","runId":"post-fix","hypothesisId":"C","location":"useCesium.js:add3DTileset:allTilesLoaded","msg":"[DEBUG] tileset all tiles loaded","data":{"url":"http://localhost:9004/tile/model/service/Yntvr2Mv/tileset.json","stats":{"show":true,"maximumScreenSpaceError":28,"memoryAdjustedScreenSpaceError":29.713824000000002,"totalMemoryUsageInBytes":596155248,"cacheBytes":536870912,"maximumCacheOverflowBytes":134217728,"numberOfLoadedTilesTotal":222,"numberOfTilesWithContentReady":38,"numberOfCommands":142,"selectedTiles":24},"camera":{"longitude":119.40568513432957,"latitude":28.53312553900516,"height":169.2357267972343,"heading":1.1085439267702624,"pitch":-0.3584851259397024,"roll":6.80738481584342e-7}},"ts":1779845732202}
{"sessionId":"tileset-camera-stutter","runId":"post-fix","hypothesisId":"A","location":"useCesium.js:initCesium:postRender","msg":"[DEBUG] scene runtime sample","data":{"fpsApprox":65.93,"slowFrameRatio":0.132,"cameraMoving":true,"camera":{"longitude":119.40581290760052,"latitude":28.533130376476535,"height":174.28374585646102,"heading":0.9376238533541157,"pitch":-0.684317211048779,"roll":8.262368762501637e-7},"cameraDelta":{"longitudeDelta":0.0000678535712950179,"latitudeDelta":0.00011265932867132733,"heightDelta":7.47927053279642,"headingDelta":0.5891390946574946,"pitchDelta":0.08574734561461606,"rollDelta":6.289419118843398e-8},"primitivesLength":1,"dataSourceLength":0,"requestRenderMode":false},"ts":1779845732661}
{"sessionId":"tileset-camera-stutter","runId":"post-fix","hypothesisId":"C","location":"useCesium.js:add3DTileset:allTilesLoaded","msg":"[DEBUG] tileset all tiles loaded","data":{"url":"http://localhost:9004/tile/model/service/Yntvr2Mv/tileset.json","stats":{"show":true,"maximumScreenSpaceError":28,"memoryAdjustedScreenSpaceError":28,"totalMemoryUsageInBytes":604650546,"cacheBytes":536870912,"maximumCacheOverflowBytes":134217728,"numberOfLoadedTilesTotal":229,"numberOfTilesWithContentReady":34,"numberOfCommands":184,"selectedTiles":24},"camera":{"longitude":119.40568441303989,"latitude":28.533078730641776,"height":185.4289506969817,"heading":0.9376238533541166,"pitch":-0.6843172110487794,"roll":8.262368762501637e-7}},"ts":1779845732775}
{"sessionId":"tileset-camera-stutter","runId":"post-fix","hypothesisId":"C","location":"useCesium.js:add3DTileset:loadProgress","msg":"[DEBUG] tileset load progress","data":{"url":"http://localhost:9004/tile/model/service/Yntvr2Mv/tileset.json","numberOfPendingRequests":4,"numberOfTilesProcessing":0,"stats":{"show":true,"maximumScreenSpaceError":28,"memoryAdjustedScreenSpaceError":28,"totalMemoryUsageInBytes":509949394,"cacheBytes":536870912,"maximumCacheOverflowBytes":134217728,"numberOfLoadedTilesTotal":229,"numberOfTilesWithContentReady":30,"numberOfCommands":140,"selectedTiles":20},"camera":{"longitude":119.40554405717477,"latitude":28.53288421744919,"height":203.63471883468853,"heading":0.9376238577554945,"pitch":-0.6843172150086239,"roll":8.192742546597742e-7}},"ts":1779845733205}
{"sessionId":"tileset-camera-stutter","runId":"post-fix","hypothesisId":"C","location":"useCesium.js:add3DTileset:allTilesLoaded","msg":"[DEBUG] tileset all tiles loaded","data":{"url":"http://localhost:9004/tile/model/service/Yntvr2Mv/tileset.json","stats":{"show":true,"maximumScreenSpaceError":28,"memoryAdjustedScreenSpaceError":28,"totalMemoryUsageInBytes":626495374,"cacheBytes":536870912,"maximumCacheOverflowBytes":134217728,"numberOfLoadedTilesTotal":245,"numberOfTilesWithContentReady":39,"numberOfCommands":189,"selectedTiles":27},"camera":{"longitude":119.40576094569451,"latitude":28.532961659701762,"height":182.57706791454947,"heading":0.9376238589006158,"pitch":-0.6843172160388686,"roll":8.174627694756964e-7}},"ts":1779845733591}
{"sessionId":"tileset-camera-stutter","runId":"post-fix","hypothesisId":"A","location":"useCesium.js:initCesium:postRender","msg":"[DEBUG] scene runtime sample","data":{"fpsApprox":65.48,"slowFrameRatio":0.091,"cameraMoving":true,"camera":{"longitude":119.40583024929691,"latitude":28.53299623371018,"height":175.71314673412775,"heading":0.9376238589006158,"pitch":-0.6843172160388677,"roll":8.17462768587518e-7},"cameraDelta":{"longitudeDelta":0.000017341696391781625,"latitudeDelta":0.00013414276635614897,"heightDelta":1.4294008776667226,"headingDelta":5.546500148057021e-9,"pitchDelta":4.9900887866272114e-9,"rollDelta":8.774107662645747e-9},"primitivesLength":1,"dataSourceLength":0,"requestRenderMode":false},"ts":1779845733669}
{"sessionId":"tileset-camera-stutter","runId":"post-fix","hypothesisId":"C","location":"useCesium.js:add3DTileset:loadProgress","msg":"[DEBUG] tileset load progress","data":{"url":"http://localhost:9004/tile/model/service/Yntvr2Mv/tileset.json","numberOfPendingRequests":7,"numberOfTilesProcessing":0,"stats":{"show":true,"maximumScreenSpaceError":28,"memoryAdjustedScreenSpaceError":28,"totalMemoryUsageInBytes":530737210,"cacheBytes":536870912,"maximumCacheOverflowBytes":134217728,"numberOfLoadedTilesTotal":245,"numberOfTilesWithContentReady":31,"numberOfCommands":164,"selectedTiles":21},"camera":{"longitude":119.40603642703542,"latitude":28.532973108469715,"height":150.53952366408672,"heading":0.334775655492904,"pitch":-0.13983266690660567,"roll":3.9425648346025355e-7}},"ts":1779845734123}
{"sessionId":"tileset-camera-stutter","runId":"post-fix","hypothesisId":"A","location":"useCesium.js:initCesium:postRender","msg":"[DEBUG] scene runtime sample","data":{"fpsApprox":50.69,"slowFrameRatio":0.275,"cameraMoving":true,"camera":{"longitude":119.40596875470254,"latitude":28.533073989465237,"height":158.4560471555349,"heading":0.98806737387814,"pitch":-0.4528035972628972,"roll":4.373404856039542e-7},"cameraDelta":{"longitudeDelta":0.00013850540562998503,"latitudeDelta":0.00007775575505775123,"heightDelta":17.257099578592857,"headingDelta":0.050443514977524195,"pitchDelta":0.23151361877597054,"rollDelta":3.8012228298356376e-7},"primitivesLength":1,"dataSourceLength":0,"requestRenderMode":false},"ts":1779845734675}
{"sessionId":"tileset-camera-stutter","runId":"post-fix","hypothesisId":"C","location":"useCesium.js:add3DTileset:allTilesLoaded","msg":"[DEBUG] tileset all tiles loaded","data":{"url":"http://localhost:9004/tile/model/service/Yntvr2Mv/tileset.json","stats":{"show":true,"maximumScreenSpaceError":28,"memoryAdjustedScreenSpaceError":28,"totalMemoryUsageInBytes":536274204,"cacheBytes":536870912,"maximumCacheOverflowBytes":134217728,"numberOfLoadedTilesTotal":275,"numberOfTilesWithContentReady":35,"numberOfCommands":117,"selectedTiles":16},"camera":{"longitude":119.40597980667083,"latitude":28.533081423810437,"height":160.7359433248557,"heading":0.9940229899973483,"pitch":-0.559985311541372,"roll":4.6550973920034266e-7}},"ts":1779845734845}
{"sessionId":"tileset-camera-stutter","runId":"post-fix","hypothesisId":"C","location":"useCesium.js:add3DTileset:loadProgress","msg":"[DEBUG] tileset load progress","data":{"url":"http://localhost:9004/tile/model/service/Yntvr2Mv/tileset.json","numberOfPendingRequests":10,"numberOfTilesProcessing":3,"stats":{"show":true,"maximumScreenSpaceError":28,"memoryAdjustedScreenSpaceError":28,"totalMemoryUsageInBytes":536274204,"cacheBytes":536870912,"maximumCacheOverflowBytes":134217728,"numberOfLoadedTilesTotal":275,"numberOfTilesWithContentReady":35,"numberOfCommands":117,"selectedTiles":16},"camera":{"longitude":119.40597324411783,"latitude":28.533078554728707,"height":161.188374179746,"heading":0.9940229899973474,"pitch":-0.5599853115413724,"roll":4.6550973920034266e-7}},"ts":1779845734978}
{"sessionId":"tileset-camera-stutter","runId":"post-fix","hypothesisId":"C","location":"useCesium.js:add3DTileset:allTilesLoaded","msg":"[DEBUG] tileset all tiles loaded","data":{"url":"http://localhost:9004/tile/model/service/Yntvr2Mv/tileset.json","stats":{"show":true,"maximumScreenSpaceError":28,"memoryAdjustedScreenSpaceError":28,"totalMemoryUsageInBytes":635617648,"cacheBytes":536870912,"maximumCacheOverflowBytes":134217728,"numberOfLoadedTilesTotal":283,"numberOfTilesWithContentReady":38,"numberOfCommands":169,"selectedTiles":27},"camera":{"longitude":119.40589957803405,"latitude":28.53304686157845,"height":166.22630973278916,"heading":0.9940229899973483,"pitch":-0.5599853115413738,"roll":4.655097400885211e-7}},"ts":1779845735281}
{"sessionId":"tileset-camera-stutter","runId":"post-fix","hypothesisId":"C","location":"useCesium.js:add3DTileset:allTilesLoaded","msg":"[DEBUG] tileset all tiles loaded","data":{"url":"http://localhost:9004/tile/model/service/Yntvr2Mv/tileset.json","stats":{"show":true,"maximumScreenSpaceError":28,"memoryAdjustedScreenSpaceError":28,"totalMemoryUsageInBytes":663086214,"cacheBytes":536870912,"maximumCacheOverflowBytes":134217728,"numberOfLoadedTilesTotal":286,"numberOfTilesWithContentReady":41,"numberOfCommands":175,"selectedTiles":29},"camera":{"longitude":119.40590981607036,"latitude":28.53301097666252,"height":167.69015880525538,"heading":0.9940229909249165,"pitch":-0.5599853125039136,"roll":4.637634809512292e-7}},"ts":1779845735475}
{"sessionId":"tileset-camera-stutter","runId":"post-fix","hypothesisId":"C","location":"useCesium.js:add3DTileset:allTilesLoaded","msg":"[DEBUG] tileset all tiles loaded","data":{"url":"http://localhost:9004/tile/model/service/Yntvr2Mv/tileset.json","stats":{"show":true,"maximumScreenSpaceError":28,"memoryAdjustedScreenSpaceError":28,"totalMemoryUsageInBytes":640328298,"cacheBytes":536870912,"maximumCacheOverflowBytes":134217728,"numberOfLoadedTilesTotal":288,"numberOfTilesWithContentReady":42,"numberOfCommands":172,"selectedTiles":30},"camera":{"longitude":119.40595856294479,"latitude":28.53295430528023,"height":168.23576007628307,"heading":0.994022992650974,"pitch":-0.5599853142950506,"roll":4.6051396562774016e-7}},"ts":1779845735648}
{"sessionId":"tileset-camera-stutter","runId":"post-fix","hypothesisId":"A","location":"useCesium.js:initCesium:postRender","msg":"[DEBUG] scene runtime sample","data":{"fpsApprox":74.47,"slowFrameRatio":0.107,"cameraMoving":true,"camera":{"longitude":119.40596288429151,"latitude":28.53295037530531,"height":168.23453461179153,"heading":0.9940229927829343,"pitch":-0.5599853144319855,"roll":4.602655350183227e-7},"cameraDelta":{"longitudeDelta":0.000005870411030173273,"latitudeDelta":0.0001236141599250118,"heightDelta":9.778487456256642,"headingDelta":0.005955618904794235,"pitchDelta":0.10718171716908831,"rollDelta":2.292504941436846e-8},"primitivesLength":1,"dataSourceLength":0,"requestRenderMode":false},"ts":1779845735682}
{"sessionId":"tileset-camera-stutter","runId":"post-fix","hypothesisId":"C","location":"useCesium.js:add3DTileset:allTilesLoaded","msg":"[DEBUG] tileset all tiles loaded","data":{"url":"http://localhost:9004/tile/model/service/Yntvr2Mv/tileset.json","stats":{"show":true,"maximumScreenSpaceError":28,"memoryAdjustedScreenSpaceError":28,"totalMemoryUsageInBytes":653400580,"cacheBytes":536870912,"maximumCacheOverflowBytes":134217728,"numberOfLoadedTilesTotal":290,"numberOfTilesWithContentReady":43,"numberOfCommands":168,"selectedTiles":30},"camera":{"longitude":119.40597273504265,"latitude":28.532941416706848,"height":168.23174110548393,"heading":0.9940229930837452,"pitch":-0.5599853147441389,"roll":4.596992235761377e-7}},"ts":1779845735772}
{"sessionId":"tileset-camera-stutter","runId":"post-fix","hypothesisId":"C","location":"useCesium.js:add3DTileset:loadProgress","msg":"[DEBUG] tileset load progress","data":{"url":"http://localhost:9004/tile/model/service/Yntvr2Mv/tileset.json","numberOfPendingRequests":1,"numberOfTilesProcessing":0,"stats":{"show":true,"maximumScreenSpaceError":28,"memoryAdjustedScreenSpaceError":28,"totalMemoryUsageInBytes":635642260,"cacheBytes":536870912,"maximumCacheOverflowBytes":134217728,"numberOfLoadedTilesTotal":290,"numberOfTilesWithContentReady":41,"numberOfCommands":165,"selectedTiles":29},"camera":{"longitude":119.40597797322538,"latitude":28.532936652926484,"height":168.23025564745868,"heading":0.9940229932437017,"pitch":-0.5599853149101266,"roll":4.593980840184031e-7}},"ts":1779845735815}
{"sessionId":"tileset-camera-stutter","runId":"post-fix","hypothesisId":"C","location":"useCesium.js:add3DTileset:allTilesLoaded","msg":"[DEBUG] tileset all tiles loaded","data":{"url":"http://localhost:9004/tile/model/service/Yntvr2Mv/tileset.json","stats":{"show":true,"maximumScreenSpaceError":28,"memoryAdjustedScreenSpaceError":28,"totalMemoryUsageInBytes":642454736,"cacheBytes":536870912,"maximumCacheOverflowBytes":134217728,"numberOfLoadedTilesTotal":292,"numberOfTilesWithContentReady":41,"numberOfCommands":164,"selectedTiles":29},"camera":{"longitude":119.40599598417157,"latitude":28.532925020039986,"height":168.89475031964454,"heading":0.9436161752243706,"pitch":-0.5857089088490439,"roll":6.283184663821276}},"ts":1779845735917}
{"sessionId":"tileset-camera-stutter","runId":"post-fix","hypothesisId":"C","location":"useCesium.js:add3DTileset:allTilesLoaded","msg":"[DEBUG] tileset all tiles loaded","data":{"url":"http://localhost:9004/tile/model/service/Yntvr2Mv/tileset.json","stats":{"show":true,"maximumScreenSpaceError":28,"memoryAdjustedScreenSpaceError":28,"totalMemoryUsageInBytes":523526178,"cacheBytes":536870912,"maximumCacheOverflowBytes":134217728,"numberOfLoadedTilesTotal":302,"numberOfTilesWithContentReady":28,"numberOfCommands":118,"selectedTiles":16},"camera":{"longitude":119.40594493543827,"latitude":28.53291322629521,"height":156.71704134728412,"heading":1.0052271320952286,"pitch":-0.1569806446882709,"roll":6.283184758623332}},"ts":1779845736499}
{"sessionId":"tileset-camera-stutter","runId":"post-fix","hypothesisId":"C","location":"useCesium.js:add3DTileset:loadProgress","msg":"[DEBUG] tileset load progress","data":{"url":"http://localhost:9004/tile/model/service/Yntvr2Mv/tileset.json","numberOfPendingRequests":10,"numberOfTilesProcessing":10,"stats":{"show":true,"maximumScreenSpaceError":28,"memoryAdjustedScreenSpaceError":28,"totalMemoryUsageInBytes":523526178,"cacheBytes":536870912,"maximumCacheOverflowBytes":134217728,"numberOfLoadedTilesTotal":302,"numberOfTilesWithContentReady":28,"numberOfCommands":111,"selectedTiles":15},"camera":{"longitude":119.40590766549094,"latitude":28.53298363504885,"height":160.58662691645907,"heading":1.2942283098495686,"pitch":-0.2855988373904006,"roll":6.283184748924884}},"ts":1779845736636}
{"sessionId":"tileset-camera-stutter","runId":"post-fix","hypothesisId":"A","location":"useCesium.js:initCesium:postRender","msg":"[DEBUG] scene runtime sample","data":{"fpsApprox":70.52,"slowFrameRatio":0.127,"cameraMoving":true,"camera":{"longitude":119.40591690315487,"latitude":28.532989217399567,"height":163.70688993736076,"heading":1.3064822027185254,"pitch":-0.39278054989043465,"roll":6.283184729333814},"cameraDelta":{"longitudeDelta":0.000045981136636896736,"latitudeDelta":0.00003884209425564222,"heightDelta":4.527644674430775,"headingDelta":0.3124592099355912,"pitchDelta":0.16720476454155087,"rollDelta":6.283184269068279},"primitivesLength":1,"dataSourceLength":0,"requestRenderMode":false},"ts":1779845736689}
{"sessionId":"tileset-camera-stutter","runId":"post-fix","hypothesisId":"C","location":"useCesium.js:add3DTileset:allTilesLoaded","msg":"[DEBUG] tileset all tiles loaded","data":{"url":"http://localhost:9004/tile/model/service/Yntvr2Mv/tileset.json","stats":{"show":true,"maximumScreenSpaceError":28,"memoryAdjustedScreenSpaceError":28,"totalMemoryUsageInBytes":532954666,"cacheBytes":536870912,"maximumCacheOverflowBytes":134217728,"numberOfLoadedTilesTotal":322,"numberOfTilesWithContentReady":30,"numberOfCommands":169,"selectedTiles":22},"camera":{"longitude":119.40620258413186,"latitude":28.532860637524017,"height":170.2684064436313,"heading":0.07882542780165203,"pitch":-0.6371541986410607,"roll":6.283184646098811}},"ts":1779845736928}
{"sessionId":"tileset-camera-stutter","runId":"post-fix","hypothesisId":"C","location":"useCesium.js:add3DTileset:loadProgress","msg":"[DEBUG] tileset load progress","data":{"url":"http://localhost:9004/tile/model/service/Yntvr2Mv/tileset.json","numberOfPendingRequests":0,"numberOfTilesProcessing":2,"stats":{"show":true,"maximumScreenSpaceError":28,"memoryAdjustedScreenSpaceError":28,"totalMemoryUsageInBytes":504557428,"cacheBytes":536870912,"maximumCacheOverflowBytes":134217728,"numberOfLoadedTilesTotal":334,"numberOfTilesWithContentReady":25,"numberOfCommands":141,"selectedTiles":16},"camera":{"longitude":119.40646403640159,"latitude":28.533132829700236,"height":166.11189012404517,"heading":4.6446022894598595,"pitch":-0.4785248488045313,"roll":6.283184697889415}},"ts":1779845737436}
{"sessionId":"tileset-camera-stutter","runId":"post-fix","hypothesisId":"A","location":"useCesium.js:initCesium:postRender","msg":"[DEBUG] scene runtime sample","data":{"fpsApprox":46.23,"slowFrameRatio":0.319,"cameraMoving":true,"camera":{"longitude":119.40612855255137,"latitude":28.532838230935234,"height":165.0437081823986,"heading":0.33018296720613094,"pitch":-0.4399394280938935,"roll":6.28318471499864},"cameraDelta":{"longitudeDelta":0.00021164939649054304,"latitudeDelta":0.00015098646433386875,"heightDelta":1.336818245037847,"headingDelta":0.9762992355123945,"pitchDelta":0.047158878203458876,"rollDelta":1.433517393678585e-8},"primitivesLength":1,"dataSourceLength":0,"requestRenderMode":false},"ts":1779845737706}
{"sessionId":"tileset-camera-stutter","runId":"post-fix","hypothesisId":"C","location":"useCesium.js:add3DTileset:allTilesLoaded","msg":"[DEBUG] tileset all tiles loaded","data":{"url":"http://localhost:9004/tile/model/service/Yntvr2Mv/tileset.json","stats":{"show":true,"maximumScreenSpaceError":28,"memoryAdjustedScreenSpaceError":28,"totalMemoryUsageInBytes":530920712,"cacheBytes":536870912,"maximumCacheOverflowBytes":134217728,"numberOfLoadedTilesTotal":351,"numberOfTilesWithContentReady":28,"numberOfCommands":141,"selectedTiles":14},"camera":{"longitude":119.40594181272341,"latitude":28.53294906385937,"height":164.07716549221857,"heading":1.1291056632781,"pitch":-0.40564118576458874,"roll":6.283184723013836}},"ts":1779845737809}
{"sessionId":"tileset-camera-stutter","runId":"post-fix","hypothesisId":"C","location":"useCesium.js:add3DTileset:loadProgress","msg":"[DEBUG] tileset load progress","data":{"url":"http://localhost:9004/tile/model/service/Yntvr2Mv/tileset.json","numberOfPendingRequests":4,"numberOfTilesProcessing":11,"stats":{"show":true,"maximumScreenSpaceError":28,"memoryAdjustedScreenSpaceError":28,"totalMemoryUsageInBytes":530113958,"cacheBytes":536870912,"maximumCacheOverflowBytes":134217728,"numberOfLoadedTilesTotal":354,"numberOfTilesWithContentReady":29,"numberOfCommands":130,"selectedTiles":14},"camera":{"longitude":119.40605663607768,"latitude":28.532875896382414,"height":167.84875123254002,"heading":0.6329986914573684,"pitch":-0.5428337289001641,"roll":6.283184679454648}},"ts":1779845738270}
{"sessionId":"tileset-camera-stutter","runId":"post-fix","hypothesisId":"A","location":"useCesium.js:initCesium:postRender","msg":"[DEBUG] scene runtime sample","data":{"fpsApprox":44.96,"slowFrameRatio":0.283,"cameraMoving":true,"camera":{"longitude":119.4062232281474,"latitude":28.532847975258797,"height":167.84875150998914,"heading":6.280865791924552,"pitch":-0.5428337337403395,"roll":6.283184687761269},"cameraDelta":{"longitudeDelta":0.00009467559603137943,"latitudeDelta":0.000009744323563154467,"heightDelta":2.805043327590539,"headingDelta":5.950682824718421,"pitchDelta":0.10289430564644597,"rollDelta":2.7237371469368554e-8},"primitivesLength":1,"dataSourceLength":0,"requestRenderMode":false},"ts":1779845738729}
